[{"name":"Leanne Graham","geo":{"lat":"-37.3159","lng":"81.1496"}},{"name":"Ervin Howell","geo":{"lat":"-43.9509","lng":"-34.4618"}},{"name":"Clementine Bauch","geo":{"lat":"-68.6102","lng":"-47.0653"}},{"name":"Patricia Lebsack","geo":{"lat":"29.4572","lng":"-164.2990"}},{"name":"Chelsey Dietrich","geo":{"lat":"-31.8129","lng":"62.5342"}},{"name":"Mrs. Dennis Schulist","geo":{"lat":"-71.4197","lng":"71.7478"}},{"name":"Kurtis Weissnat","geo":{"lat":"24.8918","lng":"21.8984"}},{"name":"Nicholas Runolfsdottir V","geo":{"lat":"-14.3990","lng":"-120.7677"}},{"name":"Glenna Reichert","geo":{"lat":"24.6463","lng":"-168.8889"}},{"name":"Clementina DuBuque","geo":{"lat":"-38.2386","lng":"57.2232"}}]